{"version": 0.6, "generator": "Overpass API 0.7.62.11 87bfad18", "osm3s": {"timestamp_osm_base": "2026-04-06T14:18:11Z", "copyright": "The data included in this document is from www.openstreetmap.org. The data is made available under ODbL."}, "elements": [{"type": "node", "id": 5333821277, "lat": 54.6581452, "lon": -5.6621848}, {"type": "node", "id": 5333821278, "lat": 54.658342, "lon": -5.6618984}, {"type": "node", "id": 5333821279, "lat": 54.6586109, "lon": -5.6618304}, {"type": "node", "id": 5333821280, "lat": 54.6586683, "lon": -5.6620487}, {"type": "node", "id": 5333821281, "lat": 54.6585486, "lon": -5.662233}, {"type": "node", "id": 5333821282, "lat": 54.6587438, "lon": -5.6626667}, {"type": "node", "id": 5333821283, "lat": 54.6589373, "lon": -5.6629106}, {"type": "node", "id": 6223913514, "lat": 54.6579199, "lon": -5.6625415}, {"type": "node", "id": 6223913515, "lat": 54.6590471, "lon": -5.6630265}, {"type": "node", "id": 6223913516, "lat": 54.6585529, "lon": -5.6638478}, {"type": "way", "id": 664945220, "nodes": [6223913514, 5333821277, 5333821278, 5333821279, 5333821280, 5333821281, 5333821282, 5333821283, 6223913515, 6223913516, 6223913514], "tags": {"addr:city": "Bangor", "addr:housename": "Bangor Community Hospital", "addr:postcode": "BT20 4TA", "addr:street": "Castle Street", "amenity": "hospital", "check_date": "2025-01-20", "healthcare": "hospital", "name": "Bangor Community Hospital", "website": "http://www.setrust.hscni.net/2101.htm"}}]}